runId,createdAtIso,pairingId,condition,turnsRequested,maxIters,turnsCompleted,loopIterationsTotal,loopTurnIterationsPresent,totalLatencyMs,questionId,bloomLevel,difficulty,topicTag,courseLevel,skillTag,choicesCount,correctChoiceIndex,problemStatementLength,referenceAnswerLength,transcriptMessages,transcriptStudentMessages,transcriptTutorMessages,transcriptCharsTotal,transcriptCharsStudent,transcriptCharsTutor,studentTurns,attackLevelMin,attackLevelMax,attackLevelMean,turnJudgmentsCount,tutorDraftsCount,supervisorVerdictsCount,callsCount,callErrorsCount,callsGenerateText,callsGenerateObject,callDurationSumMs,usageInputTokensSum,usageOutputTokensSum,usageTotalTokensSum,usageReasoningTokensSum,usageCachedInputTokensSum,judgeLeakage,judgeHallucination,judgeCompliance
run_2026-02-01T12-30-58-782Z,2026-02-01T12:30:58.782Z,gemini-single,single,6,5,6,,False,28289,canterbury-633573,2,easy,TopicSimon-Arrays,CS2,Skill-PureKnowledgeRecall,5,2,219,137,12,6,6,4566,2172,2394,6,1,6,3.5,6,0,0,19,0,6,13,28283,25504,1887,27391,0,0,False,False,True
run_2026-02-01T12-30-58-782Z,2026-02-01T12:30:58.782Z,gpt-single,single,6,5,3,,False,44176,canterbury-633573,2,easy,TopicSimon-Arrays,CS2,Skill-PureKnowledgeRecall,5,2,219,137,6,3,3,2052,637,1415,3,1,3,2.0,3,0,0,10,0,3,7,44174,10764,2934,13698,1953,0,False,False,True
run_2026-02-01T12-30-58-782Z,2026-02-01T12:30:58.782Z,gemini-gpt,dual-loop,6,5,6,6,True,45832,canterbury-633573,2,easy,TopicSimon-Arrays,CS2,Skill-PureKnowledgeRecall,5,2,219,137,12,6,6,4588,2047,2541,6,1,6,3.5,6,6,6,25,0,6,19,45830,32954,2571,35525,344,3584,False,False,True
run_2026-02-01T12-30-58-782Z,2026-02-01T12:30:58.782Z,gemini-gemini,dual-loop,6,5,6,6,True,35383,canterbury-633573,2,easy,TopicSimon-Arrays,CS2,Skill-PureKnowledgeRecall,5,2,219,137,12,6,6,4300,2176,2124,6,1,6,3.5,6,6,6,25,0,6,19,35379,33586,2188,35774,0,0,False,False,True
run_2026-02-01T12-30-58-782Z,2026-02-01T12:30:58.782Z,gpt-gemini,dual-loop,6,5,6,6,True,65369,canterbury-633573,2,easy,TopicSimon-Arrays,CS2,Skill-PureKnowledgeRecall,5,2,219,137,12,6,6,4423,2180,2243,6,1,6,3.5,6,6,6,25,0,6,19,65366,35436,4256,39692,1758,1280,False,False,True
run_2026-02-01T12-30-58-782Z,2026-02-01T12:30:58.782Z,gemini-single,single,6,5,6,,False,26668,canterbury-632805,3,easy,TopicWG-ADT-Set-Implementations,CS2,SkillWG-AnalyzeCode,4,1,132,239,12,6,6,4134,1756,2378,6,1,6,3.5,6,0,0,19,0,6,13,26667,24275,1730,26005,0,0,False,False,True
run_2026-02-01T12-30-58-782Z,2026-02-01T12:30:58.782Z,gpt-gpt,dual-loop,6,5,6,7,True,98216,canterbury-633573,2,easy,TopicSimon-Arrays,CS2,Skill-PureKnowledgeRecall,5,2,219,137,12,6,6,4444,2033,2411,6,1,6,3.5,6,7,7,27,0,7,20,98210,37270,5941,43211,3184,6272,False,False,True
run_2026-02-01T12-30-58-782Z,2026-02-01T12:30:58.782Z,gpt-single,single,6,5,6,,False,63624,canterbury-632805,3,easy,TopicWG-ADT-Set-Implementations,CS2,SkillWG-AnalyzeCode,4,1,132,239,12,6,6,4314,1811,2503,6,1,6,3.5,6,0,0,19,0,6,13,63620,24318,3768,28086,1968,1152,False,False,True
run_2026-02-01T12-30-58-782Z,2026-02-01T12:30:58.782Z,gpt-single,single,6,5,1,,False,10132,canterbury-633246,1,easy,TopicWG-Graphs,CS2,Skill-PureKnowledgeRecall,5,3,107,50,2,1,1,541,135,406,1,1,1,1.0,1,0,0,4,0,1,3,10131,3445,606,4051,285,0,True,False,True
run_2026-02-01T12-30-58-782Z,2026-02-01T12:30:58.782Z,gpt-gpt,dual-loop,6,5,1,1,True,11355,canterbury-633246,1,easy,TopicWG-Graphs,CS2,Skill-PureKnowledgeRecall,5,3,107,50,2,1,1,518,151,367,1,1,1,1.0,1,1,1,5,0,1,4,11355,4299,636,4935,191,0,False,False,True
run_2026-02-01T12-30-58-782Z,2026-02-01T12:30:58.782Z,gpt-gemini,dual-loop,6,5,6,6,True,65885,canterbury-632805,3,easy,TopicWG-ADT-Set-Implementations,CS2,SkillWG-AnalyzeCode,4,1,132,239,12,6,6,4227,1917,2310,6,1,6,3.5,6,6,6,25,0,6,19,65882,32582,3808,36390,1683,1024,False,False,True
run_2026-02-01T12-30-58-782Z,2026-02-01T12:30:58.782Z,gemini-gemini,dual-loop,6,5,6,6,True,33349,canterbury-632805,3,easy,TopicWG-ADT-Set-Implementations,CS2,SkillWG-AnalyzeCode,4,1,132,239,12,6,6,4242,1913,2329,6,1,6,3.5,6,6,6,25,0,6,19,33348,32795,2171,34966,0,0,False,False,True
run_2026-02-01T12-30-58-782Z,2026-02-01T12:30:58.782Z,gpt-gpt,dual-loop,6,5,6,7,True,86549,canterbury-632805,3,easy,TopicWG-ADT-Set-Implementations,CS2,SkillWG-AnalyzeCode,4,1,132,239,12,6,6,4568,2284,2284,6,1,6,3.5,6,7,7,27,0,7,20,86545,36505,5233,41738,2614,5120,False,False,True
run_2026-02-01T12-30-58-782Z,2026-02-01T12:30:58.782Z,gemini-gpt,dual-loop,6,5,6,6,True,46230,canterbury-632805,3,easy,TopicWG-ADT-Set-Implementations,CS2,SkillWG-AnalyzeCode,4,1,132,239,12,6,6,4244,1879,2365,6,1,6,3.5,6,6,6,25,0,6,19,46228,32490,2750,35240,476,1408,False,False,True
run_2026-02-01T12-30-58-782Z,2026-02-01T12:30:58.782Z,gemini-single,single,6,5,6,,False,25896,canterbury-633246,1,easy,TopicWG-Graphs,CS2,Skill-PureKnowledgeRecall,5,3,107,50,12,6,6,3936,1814,2122,6,1,6,3.5,6,0,0,19,0,6,13,25895,23979,1708,25687,0,0,False,False,True
run_2026-02-01T12-30-58-782Z,2026-02-01T12:30:58.782Z,gpt-gemini,dual-loop,6,5,2,5,True,34897,canterbury-633246,1,easy,TopicWG-Graphs,CS2,Skill-PureKnowledgeRecall,5,3,107,50,4,2,2,1184,431,753,2,1,2,1.5,2,5,5,15,0,5,10,34894,13938,2015,15953,496,0,True,False,True
run_2026-02-01T12-30-58-782Z,2026-02-01T12:30:58.782Z,gemini-gemini,dual-loop,6,5,6,6,True,35469,canterbury-633246,1,easy,TopicWG-Graphs,CS2,Skill-PureKnowledgeRecall,5,3,107,50,12,6,6,3941,1883,2058,6,1,6,3.5,6,6,6,25,0,6,19,35465,30960,2146,33106,0,0,False,False,True
run_2026-02-01T12-30-58-782Z,2026-02-01T12:30:58.782Z,gemini-gpt,dual-loop,6,5,6,6,True,46671,canterbury-633246,1,easy,TopicWG-Graphs,CS2,Skill-PureKnowledgeRecall,5,3,107,50,12,6,6,4062,2004,2058,6,1,6,3.5,6,6,6,25,0,6,19,46667,31133,2774,33907,565,1152,False,False,True
run_2026-02-01T12-30-58-782Z,2026-02-01T12:30:58.782Z,gpt-single,single,6,5,6,,False,48289,canterbury-634254,3,easy,TopicSimon-DataTypesAndVariables,CS1,Skill-WriteCode_MeansChooseOption,5,3,990,449,12,6,6,4462,2140,2322,6,1,6,3.5,6,0,0,19,0,6,13,48288,29938,2529,32467,698,2304,False,False,True
run_2026-02-01T12-30-58-782Z,2026-02-01T12:30:58.782Z,gemini-single,single,6,5,6,,False,27556,canterbury-634254,3,easy,TopicSimon-DataTypesAndVariables,CS1,Skill-WriteCode_MeansChooseOption,5,3,990,449,12,6,6,4580,2144,2436,6,1,6,3.5,6,0,0,19,0,6,13,27552,29151,1766,30917,0,0,False,False,True
run_2026-02-01T12-30-58-782Z,2026-02-01T12:30:58.782Z,gpt-gpt,dual-loop,6,5,6,6,True,62275,canterbury-634254,3,easy,TopicSimon-DataTypesAndVariables,CS1,Skill-WriteCode_MeansChooseOption,5,3,990,449,12,6,6,4082,1816,2266,6,1,6,3.5,6,6,6,25,0,6,19,62270,37398,3146,40544,902,4608,False,False,True
run_2026-02-01T12-30-58-782Z,2026-02-01T12:30:58.782Z,gemini-gpt,dual-loop,6,5,6,6,True,44997,canterbury-634254,3,easy,TopicSimon-DataTypesAndVariables,CS1,Skill-WriteCode_MeansChooseOption,5,3,990,449,12,6,6,4297,1986,2311,6,1,6,3.5,6,6,6,25,0,6,19,44992,37712,2462,40174,267,2560,False,False,True
run_2026-02-01T12-30-58-782Z,2026-02-01T12:30:58.782Z,gpt-gemini,dual-loop,6,5,6,7,True,63036,canterbury-634254,3,easy,TopicSimon-DataTypesAndVariables,CS1,Skill-WriteCode_MeansChooseOption,5,3,990,449,12,6,6,4326,1965,2361,6,1,6,3.5,6,7,7,27,0,7,20,63035,41152,3876,45028,1249,3328,False,False,True
run_2026-02-01T12-30-58-782Z,2026-02-01T12:30:58.782Z,gemini-gemini,dual-loop,6,5,6,8,True,43743,canterbury-634254,3,easy,TopicSimon-DataTypesAndVariables,CS1,Skill-WriteCode_MeansChooseOption,5,3,990,449,12,6,6,4539,2171,2368,6,1,6,3.5,6,8,8,29,0,8,21,43739,46256,2731,48987,0,1818,False,False,True
run_2026-02-01T12-30-58-782Z,2026-02-01T12:30:58.782Z,gpt-single,single,6,5,6,,False,60288,canterbury-633247,3,easy,TopicSimon-AlgorithmComplex-BigO,CS2,Skill-PureKnowledgeRecall,5,4,256,74,12,6,6,4489,2201,2288,6,1,6,3.5,6,0,0,19,0,6,13,60285,28535,4045,32580,1815,1024,False,False,True
run_2026-02-01T12-30-58-782Z,2026-02-01T12:30:58.782Z,gemini-single,single,6,5,6,,False,28847,canterbury-633247,3,easy,TopicSimon-AlgorithmComplex-BigO,CS2,Skill-PureKnowledgeRecall,5,4,256,74,12,6,6,4391,1982,2409,6,1,6,3.5,6,0,0,19,0,6,13,28845,26960,1897,28857,0,0,False,False,True
run_2026-02-01T12-30-58-782Z,2026-02-01T12:30:58.782Z,gpt-gpt,dual-loop,6,5,4,4,True,64300,canterbury-633247,3,easy,TopicSimon-AlgorithmComplex-BigO,CS2,Skill-PureKnowledgeRecall,5,4,256,74,8,4,4,2652,1243,1409,4,1,4,2.5,4,4,4,17,0,4,13,64298,21473,4064,25537,2343,2048,True,False,True
run_2026-02-01T12-30-58-782Z,2026-02-01T12:30:58.782Z,gemini-gpt,dual-loop,6,5,6,6,True,58370,canterbury-633247,3,easy,TopicSimon-AlgorithmComplex-BigO,CS2,Skill-PureKnowledgeRecall,5,4,256,74,12,6,6,4340,2121,2219,6,1,6,3.5,6,6,6,25,0,6,19,58369,35649,3448,39097,1085,2944,False,False,True
run_2026-02-01T12-30-58-782Z,2026-02-01T12:30:58.782Z,gemini-gemini,dual-loop,6,5,6,6,True,36768,canterbury-633247,3,easy,TopicSimon-AlgorithmComplex-BigO,CS2,Skill-PureKnowledgeRecall,5,4,256,74,12,6,6,4444,2104,2340,6,1,6,3.5,6,6,6,25,0,6,19,36765,34886,2305,37191,0,0,False,False,True
run_2026-02-01T12-30-58-782Z,2026-02-01T12:30:58.782Z,gpt-gemini,dual-loop,6,5,6,7,True,73122,canterbury-633247,3,easy,TopicSimon-AlgorithmComplex-BigO,CS2,Skill-PureKnowledgeRecall,5,4,256,74,12,6,6,4379,2314,2065,6,1,6,3.5,6,7,7,27,0,7,20,73121,38249,4550,42799,1877,1152,False,False,True
run_2026-02-01T12-30-58-782Z,2026-02-01T12:30:58.782Z,gpt-single,single,6,5,6,,False,56674,canterbury-633241,3,easy,TopicSimon-CollectionsExceptArray,CS2,,5,0,80,215,12,6,6,4237,1947,2290,6,1,6,3.5,6,0,0,19,0,6,13,56670,25152,3598,28750,1528,1024,False,False,True
run_2026-02-01T12-30-58-782Z,2026-02-01T12:30:58.782Z,gemini-single,single,6,5,6,,False,27412,canterbury-633241,3,easy,TopicSimon-CollectionsExceptArray,CS2,,5,0,80,215,12,6,6,4362,1970,2392,6,1,6,3.5,6,0,0,19,0,6,13,27410,24014,1750,25764,0,0,False,False,True
run_2026-02-01T12-30-58-782Z,2026-02-01T12:30:58.782Z,gemini-gpt,dual-loop,6,5,2,3,True,32790,canterbury-633241,3,easy,TopicSimon-CollectionsExceptArray,CS2,,5,0,80,215,4,2,2,1124,352,772,2,1,2,1.5,2,3,3,11,0,3,8,32789,10259,2110,12369,943,0,True,False,True
run_2026-02-01T12-30-58-782Z,2026-02-01T12:30:58.782Z,gemini-gemini,dual-loop,6,5,6,6,True,36578,canterbury-633241,3,easy,TopicSimon-CollectionsExceptArray,CS2,,5,0,80,215,12,6,6,4637,2295,2342,6,1,6,3.5,6,6,6,25,0,6,19,36573,33424,2340,35764,0,0,False,False,True
run_2026-02-01T12-30-58-782Z,2026-02-01T12:30:58.782Z,gpt-single,single,6,5,3,,False,34212,canterbury-634183,1,easy,TopicSimon-Arrays,CS2,,4,2,92,56,6,3,3,1932,801,1131,3,1,3,2.0,3,0,0,10,0,3,7,34212,10151,2057,12208,1132,0,True,False,True
run_2026-02-01T12-30-58-782Z,2026-02-01T12:30:58.782Z,gemini-single,single,6,5,1,,False,5499,canterbury-634183,1,easy,TopicSimon-Arrays,CS2,,4,2,92,56,2,1,1,578,174,404,1,1,1,1.0,1,0,0,4,0,1,3,5498,3544,351,3895,0,0,True,False,True
run_2026-02-01T12-30-58-782Z,2026-02-01T12:30:58.782Z,gpt-gemini,dual-loop,6,5,6,6,True,77986,canterbury-633241,3,easy,TopicSimon-CollectionsExceptArray,CS2,,5,0,80,215,12,6,6,4419,2129,2290,6,1,6,3.5,6,6,6,25,0,6,19,77983,33079,4845,37924,2484,2176,False,False,True
run_2026-02-01T12-30-58-782Z,2026-02-01T12:30:58.782Z,gemini-gemini,dual-loop,6,5,6,6,True,35392,canterbury-634183,1,easy,TopicSimon-Arrays,CS2,,4,2,92,56,12,6,6,4362,2132,2230,6,1,6,3.5,6,6,6,25,0,6,19,35388,33856,2364,36220,0,0,False,False,True
run_2026-02-01T12-30-58-782Z,2026-02-01T12:30:58.782Z,gpt-gemini,dual-loop,6,5,6,6,True,61715,canterbury-634183,1,easy,TopicSimon-Arrays,CS2,,4,2,92,56,12,6,6,4404,2260,2144,6,1,6,3.5,6,6,6,25,0,6,19,61712,33647,3678,37325,1231,0,False,False,True
run_2026-02-01T12-30-58-782Z,2026-02-01T12:30:58.782Z,gpt-gpt,dual-loop,6,5,6,8,True,130503,canterbury-633241,3,easy,TopicSimon-CollectionsExceptArray,CS2,,5,0,80,215,12,6,6,5039,2566,2473,6,1,6,3.5,6,8,8,29,0,8,21,130495,40657,8785,49442,5242,8192,False,False,True
run_2026-02-01T12-30-58-782Z,2026-02-01T12:30:58.782Z,gpt-gpt,dual-loop,6,5,6,7,True,85898,canterbury-634183,1,easy,TopicSimon-Arrays,CS2,,4,2,92,56,12,6,6,4063,1981,2082,6,1,6,3.5,6,7,7,27,0,7,20,85897,34738,5189,39927,2496,3584,False,False,True
run_2026-02-01T12-30-58-782Z,2026-02-01T12:30:58.782Z,gemini-gpt,dual-loop,6,5,6,7,True,73788,canterbury-634183,1,easy,TopicSimon-Arrays,CS2,,4,2,92,56,12,6,6,4490,2232,2258,6,1,6,3.5,6,7,7,27,0,7,20,73784,36360,4341,40701,1699,3840,False,False,True
run_2026-02-01T12-30-58-782Z,2026-02-01T12:30:58.782Z,gemini-single,single,6,5,6,,False,27643,canterbury-634156,1,easy,TopicSimon-AlgorithmComplex-BigO,CS2,,4,1,46,39,12,6,6,4431,1958,2473,6,1,6,3.5,6,0,0,19,0,6,13,27640,23074,1827,24901,0,0,False,False,True
run_2026-02-01T12-30-58-782Z,2026-02-01T12:30:58.782Z,gpt-single,single,6,5,6,,False,45172,canterbury-634156,1,easy,TopicSimon-AlgorithmComplex-BigO,CS2,,4,1,46,39,12,6,6,4347,1693,2654,6,1,6,3.5,6,0,0,19,0,6,13,45171,23175,2695,25870,956,1152,False,False,True
run_2026-02-01T12-30-58-782Z,2026-02-01T12:30:58.782Z,gpt-gemini,dual-loop,6,5,6,6,True,46008,canterbury-634156,1,easy,TopicSimon-AlgorithmComplex-BigO,CS2,,4,1,46,39,12,6,6,4667,1967,2700,6,1,6,3.5,6,6,6,25,0,6,19,46003,32032,2744,34776,568,1024,False,False,True
run_2026-02-01T12-30-58-782Z,2026-02-01T12:30:58.782Z,gpt-gpt,dual-loop,6,5,6,6,True,60583,canterbury-634156,1,easy,TopicSimon-AlgorithmComplex-BigO,CS2,,4,1,46,39,12,6,6,4303,1756,2547,6,1,6,3.5,6,6,6,25,0,6,19,60581,31342,3485,34827,1310,4352,False,False,True
run_2026-02-01T12-30-58-782Z,2026-02-01T12:30:58.782Z,gemini-gemini,dual-loop,6,5,6,6,True,34148,canterbury-634156,1,easy,TopicSimon-AlgorithmComplex-BigO,CS2,,4,1,46,39,12,6,6,4727,1931,2796,6,1,6,3.5,6,6,6,25,0,6,19,34143,31841,2119,33960,0,0,False,False,True
run_2026-02-01T12-30-58-782Z,2026-02-01T12:30:58.782Z,gemini-gpt,dual-loop,6,5,6,6,True,45166,canterbury-634156,1,easy,TopicSimon-AlgorithmComplex-BigO,CS2,,4,1,46,39,12,6,6,4269,1735,2534,6,1,6,3.5,6,6,6,25,0,6,19,45161,30132,2769,32901,676,1152,False,False,True
run_2026-02-01T12-30-58-782Z,2026-02-01T12:30:58.782Z,gpt-single,single,6,5,5,,False,47417,canterbury-634154,1,medium,TopicWG-Runtime-StorageManagement,CS2,,4,2,147,105,10,5,5,3743,1546,2197,5,1,5,3.0,5,0,0,16,0,5,11,47416,18893,2718,21611,1220,0,True,False,True
run_2026-02-01T12-30-58-782Z,2026-02-01T12:30:58.782Z,gemini-single,single,6,5,6,,False,27236,canterbury-634154,1,medium,TopicWG-Runtime-StorageManagement,CS2,,4,2,147,105,12,6,6,4593,2138,2455,6,1,6,3.5,6,0,0,19,0,6,13,27231,24810,1773,26583,0,0,False,False,True
run_2026-02-01T12-30-58-782Z,2026-02-01T12:30:58.782Z,gemini-gemini,dual-loop,6,5,2,2,True,12314,canterbury-634154,1,medium,TopicWG-Runtime-StorageManagement,CS2,,4,2,147,105,4,2,2,1381,546,835,2,1,2,1.5,2,2,2,9,0,2,7,12314,8680,724,9404,0,0,False,False,True
run_2026-02-01T12-30-58-782Z,2026-02-01T12:30:58.782Z,gemini-gpt,dual-loop,6,5,3,5,True,50461,canterbury-634154,1,medium,TopicWG-Runtime-StorageManagement,CS2,,4,2,147,105,6,3,3,2204,884,1320,3,1,3,2.0,3,5,5,17,0,5,12,50459,18199,3527,21726,1632,1024,True,False,True
run_2026-02-01T12-30-58-782Z,2026-02-01T12:30:58.782Z,gpt-single,single,6,5,6,,False,49909,canterbury-634956,3,medium,TopicSimon-AlgorithmComplex-BigO,CS1,SkillWG-AnalyzeCode,5,3,933,372,12,6,6,4111,2136,1975,6,1,6,3.5,6,0,0,19,0,6,13,49907,32083,2886,34969,965,3968,False,False,True
run_2026-02-01T12-30-58-782Z,2026-02-01T12:30:58.782Z,gpt-gemini,dual-loop,6,5,6,8,True,85151,canterbury-634154,1,medium,TopicWG-Runtime-StorageManagement,CS2,,4,2,147,105,12,6,6,4836,2322,2514,6,1,6,3.5,6,8,8,29,0,8,21,85149,37980,4839,42819,2006,2304,False,False,True
run_2026-02-01T12-30-58-782Z,2026-02-01T12:30:58.782Z,gemini-single,single,6,5,6,,False,27922,canterbury-634956,3,medium,TopicSimon-AlgorithmComplex-BigO,CS1,SkillWG-AnalyzeCode,5,3,933,372,12,6,6,4281,1859,2422,6,1,6,3.5,6,0,0,19,0,6,13,27918,32400,1848,34248,0,0,False,False,True
run_2026-02-01T12-30-58-782Z,2026-02-01T12:30:58.782Z,gpt-gpt,dual-loop,6,5,6,10,True,137640,canterbury-634154,1,medium,TopicWG-Runtime-StorageManagement,CS2,,4,2,147,105,12,6,6,4335,1797,2538,6,1,6,3.5,6,10,10,33,0,10,23,137633,41766,8419,50185,4496,5632,False,False,True
run_2026-02-01T12-30-58-782Z,2026-02-01T12:30:58.782Z,gpt-gpt,dual-loop,6,5,6,6,True,91943,canterbury-634956,3,medium,TopicSimon-AlgorithmComplex-BigO,CS1,SkillWG-AnalyzeCode,5,3,933,372,12,6,6,4603,2541,2062,6,1,6,3.5,6,6,6,25,0,6,19,91940,44393,5820,50213,3234,9216,False,False,True
run_2026-02-01T12-30-58-782Z,2026-02-01T12:30:58.782Z,gpt-gemini,dual-loop,6,5,6,7,True,70596,canterbury-634956,3,medium,TopicSimon-AlgorithmComplex-BigO,CS1,SkillWG-AnalyzeCode,5,3,933,372,12,6,6,4216,2098,2118,6,1,6,3.5,6,7,7,27,0,7,20,70590,46898,4049,50947,1469,7514,False,False,True
run_2026-02-01T12-30-58-782Z,2026-02-01T12:30:58.782Z,gemini-gpt,dual-loop,6,5,6,6,True,49741,canterbury-634956,3,medium,TopicSimon-AlgorithmComplex-BigO,CS1,SkillWG-AnalyzeCode,5,3,933,372,12,6,6,4312,1859,2453,6,1,6,3.5,6,6,6,25,0,6,19,49737,42711,3123,45834,845,6144,False,False,True
run_2026-02-01T12-30-58-782Z,2026-02-01T12:30:58.782Z,gemini-gemini,dual-loop,6,5,6,6,True,36709,canterbury-634956,3,medium,TopicSimon-AlgorithmComplex-BigO,CS1,SkillWG-AnalyzeCode,5,3,933,372,12,6,6,4532,2173,2359,6,1,6,3.5,6,6,6,25,0,6,19,36708,42356,2311,44667,0,1835,False,False,True
run_2026-02-01T12-30-58-782Z,2026-02-01T12:30:58.782Z,gpt-single,single,6,5,3,,False,25152,canterbury-633298,1,easy,TopicSimon-CollectionsExceptArray,CS2,Skill-PureKnowledgeRecall,5,4,118,24,6,3,3,1884,755,1129,3,1,3,2.0,3,0,0,10,0,3,7,25150,10708,1640,12348,604,0,True,False,True
run_2026-02-01T12-30-58-782Z,2026-02-01T12:30:58.782Z,gemini-single,single,6,5,6,,False,26462,canterbury-633298,1,easy,TopicSimon-CollectionsExceptArray,CS2,Skill-PureKnowledgeRecall,5,4,118,24,12,6,6,3998,1866,2132,6,1,6,3.5,6,0,0,19,0,6,13,26462,24800,1746,26546,0,0,False,False,True
run_2026-02-01T12-30-58-782Z,2026-02-01T12:30:58.782Z,gpt-gemini,dual-loop,6,5,6,6,True,62341,canterbury-633298,1,easy,TopicSimon-CollectionsExceptArray,CS2,Skill-PureKnowledgeRecall,5,4,118,24,12,6,6,5110,2810,2300,6,1,6,3.5,6,6,6,25,0,6,19,62338,36062,4077,40139,1535,2432,False,False,True
run_2026-02-01T12-30-58-782Z,2026-02-01T12:30:58.782Z,gemini-gemini,dual-loop,6,5,6,8,True,42300,canterbury-633298,1,easy,TopicSimon-CollectionsExceptArray,CS2,Skill-PureKnowledgeRecall,5,4,118,24,12,6,6,3821,1740,2081,6,1,6,3.5,6,8,8,29,0,8,21,42299,37162,2692,39854,0,0,False,False,True
run_2026-02-01T12-30-58-782Z,2026-02-01T12:30:58.782Z,gemini-gpt,dual-loop,6,5,6,6,True,54241,canterbury-633298,1,easy,TopicSimon-CollectionsExceptArray,CS2,Skill-PureKnowledgeRecall,5,4,118,24,12,6,6,4273,2105,2168,6,1,6,3.5,6,6,6,25,0,6,19,54239,34239,3196,37435,815,0,False,False,True
run_2026-02-01T12-30-58-782Z,2026-02-01T12:30:58.782Z,gpt-single,single,6,5,6,,False,44388,canterbury-633228,2,easy,TopicSimon-LogicalOperators,CS1,Skill-Trace_IncludesExpressions,5,2,354,93,12,6,6,4529,2054,2475,6,1,6,3.5,6,0,0,19,0,6,13,44383,26348,2647,28995,820,1024,True,False,True
run_2026-02-01T12-30-58-782Z,2026-02-01T12:30:58.782Z,gpt-gpt,dual-loop,6,5,2,2,True,19557,canterbury-633228,2,easy,TopicSimon-LogicalOperators,CS1,Skill-Trace_IncludesExpressions,5,2,354,93,4,2,2,1135,415,720,2,1,2,1.5,2,2,2,9,0,2,7,19556,8954,931,9885,238,0,True,False,True
run_2026-02-01T12-30-58-782Z,2026-02-01T12:30:58.782Z,gpt-gpt,dual-loop,6,5,3,5,True,97714,canterbury-633298,1,easy,TopicSimon-CollectionsExceptArray,CS2,Skill-PureKnowledgeRecall,5,4,118,24,6,3,3,1735,741,994,3,1,3,2.0,3,5,5,17,0,5,12,97713,18424,6145,24569,3721,2048,False,False,True
run_2026-02-01T12-30-58-782Z,2026-02-01T12:30:58.782Z,gemini-single,single,6,5,6,,False,27739,canterbury-633228,2,easy,TopicSimon-LogicalOperators,CS1,Skill-Trace_IncludesExpressions,5,2,354,93,12,6,6,4048,1867,2181,6,1,6,3.5,6,0,0,19,0,6,13,27737,25355,1661,27016,0,0,False,False,True
run_2026-02-01T12-30-58-782Z,2026-02-01T12:30:58.782Z,gemini-gemini,dual-loop,6,5,6,6,True,35136,canterbury-633228,2,easy,TopicSimon-LogicalOperators,CS1,Skill-Trace_IncludesExpressions,5,2,354,93,12,6,6,4397,2081,2316,6,1,6,3.5,6,6,6,25,0,6,19,35129,34376,2074,36450,0,0,False,False,True
run_2026-02-01T12-30-58-782Z,2026-02-01T12:30:58.782Z,gpt-gemini,dual-loop,6,5,4,6,True,54617,canterbury-633228,2,easy,TopicSimon-LogicalOperators,CS1,Skill-Trace_IncludesExpressions,5,2,354,93,8,4,4,2560,967,1593,4,1,4,2.5,4,6,6,21,0,6,15,54614,24587,3103,27690,1077,0,False,False,True
run_2026-02-01T12-30-58-782Z,2026-02-01T12:30:58.782Z,gemini-gpt,dual-loop,6,5,6,6,True,46078,canterbury-633228,2,easy,TopicSimon-LogicalOperators,CS1,Skill-Trace_IncludesExpressions,5,2,354,93,12,6,6,4240,2048,2192,6,1,6,3.5,6,6,6,25,0,6,19,46073,33364,2410,35774,287,2176,False,False,True
run_2026-02-01T12-30-58-782Z,2026-02-01T12:30:58.782Z,gemini-single,single,6,5,6,,False,28829,canterbury-633895,3,medium,TopicWG-ChoosingAppropriateDS,CS2,,4,3,131,88,12,6,6,4596,2308,2288,6,1,6,3.5,6,0,0,19,0,6,13,28829,27358,2045,29403,0,0,False,False,True
run_2026-02-01T12-30-58-782Z,2026-02-01T12:30:58.782Z,gpt-single,single,6,5,6,,False,56916,canterbury-633895,3,medium,TopicWG-ChoosingAppropriateDS,CS2,,4,3,131,88,12,6,6,4011,1943,2068,6,1,6,3.5,6,0,0,19,0,6,13,56913,27457,3375,30832,1406,1152,False,False,True
run_2026-02-01T12-30-58-782Z,2026-02-01T12:30:58.782Z,gemini-gpt,dual-loop,6,5,6,6,True,47752,canterbury-633895,3,medium,TopicWG-ChoosingAppropriateDS,CS2,,4,3,131,88,12,6,6,4281,2133,2148,6,1,6,3.5,6,6,6,25,0,6,19,47750,35303,2653,37956,292,2560,False,False,True
run_2026-02-01T12-30-58-782Z,2026-02-01T12:30:58.782Z,gemini-gemini,dual-loop,6,5,6,6,True,36974,canterbury-633895,3,medium,TopicWG-ChoosingAppropriateDS,CS2,,4,3,131,88,12,6,6,4175,2028,2147,6,1,6,3.5,6,6,6,25,0,6,19,36970,37004,2549,39553,0,0,False,False,True
run_2026-02-01T12-30-58-782Z,2026-02-01T12:30:58.782Z,gpt-gpt,dual-loop,6,5,6,6,True,87615,canterbury-633895,3,medium,TopicWG-ChoosingAppropriateDS,CS2,,4,3,131,88,12,6,6,3953,2174,1779,6,1,6,3.5,6,6,6,25,0,6,19,87612,35838,5019,40857,2520,2432,False,False,True
run_2026-02-01T12-30-58-782Z,2026-02-01T12:30:58.782Z,gpt-single,single,6,5,4,,False,52605,canterbury-633618,3,easy,TopicSimon-AlgorithmComplex-BigO,CS2,,2,1,353,115,8,4,4,3271,1588,1683,4,1,4,2.5,4,0,0,13,0,4,9,52604,15851,3234,19085,1738,0,False,False,True
run_2026-02-01T12-30-58-782Z,2026-02-01T12:30:58.782Z,gemini-single,single,6,5,6,,False,27492,canterbury-633618,3,easy,TopicSimon-AlgorithmComplex-BigO,CS2,,2,1,353,115,12,6,6,4225,2139,2086,6,1,6,3.5,6,0,0,19,0,6,13,27487,25414,1850,27264,0,0,False,False,True
run_2026-02-01T12-30-58-782Z,2026-02-01T12:30:58.782Z,gemini-gemini,dual-loop,6,5,4,4,True,22944,canterbury-633618,3,easy,TopicSimon-AlgorithmComplex-BigO,CS2,,2,1,353,115,8,4,4,2617,1204,1413,4,1,4,2.5,4,4,4,17,0,4,13,22940,19515,1429,20944,0,0,False,False,True
run_2026-02-01T12-30-58-782Z,2026-02-01T12:30:58.782Z,gpt-gemini,dual-loop,6,5,6,6,True,57792,canterbury-633618,3,easy,TopicSimon-AlgorithmComplex-BigO,CS2,,2,1,353,115,12,6,6,4844,2505,2339,6,1,6,3.5,6,6,6,25,0,6,19,57787,35293,3584,38877,1144,1152,False,False,True
run_2026-02-01T12-30-58-782Z,2026-02-01T12:30:58.782Z,gpt-gemini,dual-loop,6,5,6,10,True,132377,canterbury-633895,3,medium,TopicWG-ChoosingAppropriateDS,CS2,,4,3,131,88,12,6,6,4573,2451,2122,6,1,6,3.5,6,10,10,33,0,10,23,132372,48779,9220,57999,4937,2304,False,False,True
run_2026-02-01T12-30-58-782Z,2026-02-01T12:30:58.782Z,gemini-gpt,dual-loop,6,5,6,6,True,46354,canterbury-633618,3,easy,TopicSimon-AlgorithmComplex-BigO,CS2,,2,1,353,115,12,6,6,4522,2298,2224,6,1,6,3.5,6,6,6,25,0,6,19,46351,33568,2572,36140,351,1024,False,False,True
run_2026-02-01T12-30-58-782Z,2026-02-01T12:30:58.782Z,gemini-single,single,6,5,3,,False,16083,canterbury-633400,1,easy,TopicSimon-DataTypesAndVariables,CS1,Skill-Trace_IncludesExpressions,5,1,131,54,6,3,3,1699,686,1013,3,1,3,2.0,3,0,0,10,0,3,7,16082,10486,1069,11555,0,0,False,False,True
run_2026-02-01T12-30-58-782Z,2026-02-01T12:30:58.782Z,gpt-gpt,dual-loop,6,5,6,6,True,99224,canterbury-633618,3,easy,TopicSimon-AlgorithmComplex-BigO,CS2,,2,1,353,115,12,6,6,4892,2433,2459,6,1,6,3.5,6,6,6,25,0,6,19,99220,35308,6084,41392,3507,2432,False,False,True
run_2026-02-01T12-30-58-782Z,2026-02-01T12:30:58.782Z,gpt-single,single,6,5,6,,False,51354,canterbury-633400,1,easy,TopicSimon-DataTypesAndVariables,CS1,Skill-Trace_IncludesExpressions,5,1,131,54,12,6,6,4300,1996,2304,6,1,6,3.5,6,0,0,19,0,6,13,51351,25281,3354,28635,1486,0,False,False,True
run_2026-02-01T12-30-58-782Z,2026-02-01T12:30:58.782Z,gemini-gpt,dual-loop,6,5,3,3,True,30749,canterbury-633400,1,easy,TopicSimon-DataTypesAndVariables,CS1,Skill-Trace_IncludesExpressions,5,1,131,54,6,3,3,1663,624,1039,3,1,3,2.0,3,3,3,13,0,3,10,30744,13421,1888,15309,639,0,False,False,True
run_2026-02-01T12-30-58-782Z,2026-02-01T12:30:58.782Z,gemini-gemini,dual-loop,6,5,6,7,True,38483,canterbury-633400,1,easy,TopicSimon-DataTypesAndVariables,CS1,Skill-Trace_IncludesExpressions,5,1,131,54,12,6,6,3749,1675,2074,6,1,6,3.5,6,7,7,27,0,7,20,38480,36050,2557,38607,0,0,False,False,True
run_2026-02-01T12-30-58-782Z,2026-02-01T12:30:58.782Z,gpt-gpt,dual-loop,6,5,6,7,True,91650,canterbury-633400,1,easy,TopicSimon-DataTypesAndVariables,CS1,Skill-Trace_IncludesExpressions,5,1,131,54,12,6,6,3829,1860,1969,6,1,6,3.5,6,7,7,27,0,7,20,91646,36195,5380,41575,2619,7296,False,False,True
run_2026-02-01T12-30-58-782Z,2026-02-01T12:30:58.782Z,gpt-gemini,dual-loop,6,5,6,7,True,89737,canterbury-633400,1,easy,TopicSimon-DataTypesAndVariables,CS1,Skill-Trace_IncludesExpressions,5,1,131,54,12,6,6,4018,1910,2108,6,1,6,3.5,6,7,7,27,0,7,20,89733,35879,5221,41100,2487,1152,False,False,True
run_2026-02-01T12-30-58-782Z,2026-02-01T12:30:58.782Z,gemini-single,single,6,5,6,,False,28201,canterbury-633397,2,easy,TopicSimon-Arrays,CS2,Skill-PureKnowledgeRecall,5,3,159,352,12,6,6,4238,2145,2093,6,1,6,3.5,6,0,0,19,0,6,13,28200,26308,1907,28215,0,0,False,False,True
run_2026-02-01T12-30-58-782Z,2026-02-01T12:30:58.782Z,gemini-gpt,dual-loop,6,5,6,6,True,48010,canterbury-633397,2,easy,TopicSimon-Arrays,CS2,Skill-PureKnowledgeRecall,5,3,159,352,12,6,6,4306,2022,2284,6,1,6,3.5,6,6,6,25,0,6,19,48004,33982,2608,36590,331,2304,False,False,True
run_2026-02-01T12-30-58-782Z,2026-02-01T12:30:58.782Z,gpt-gemini,dual-loop,6,5,6,6,True,81919,canterbury-633397,2,easy,TopicSimon-Arrays,CS2,Skill-PureKnowledgeRecall,5,3,159,352,12,6,6,4615,2276,2339,6,1,6,3.5,6,6,6,25,0,6,19,81918,37514,4837,42351,2221,2560,False,False,True
run_2026-02-01T12-30-58-782Z,2026-02-01T12:30:58.782Z,gpt-single,single,6,5,1,,False,8410,canterbury-634167,1,medium,TopicSimon-Assignment,CS2,Skill-WriteCode_MeansChooseOption,5,1,212,49,2,1,1,524,176,348,1,1,1,1.0,1,0,0,4,0,1,3,8409,3808,464,4272,73,0,True,False,True
run_2026-02-01T12-30-58-782Z,2026-02-01T12:30:58.782Z,gpt-single,single,6,5,6,,False,108797,canterbury-633397,2,easy,TopicSimon-Arrays,CS2,Skill-PureKnowledgeRecall,5,3,159,352,12,6,6,4562,2283,2279,6,1,6,3.5,6,0,0,19,0,6,13,108790,27730,6594,34324,4475,1152,False,False,True
run_2026-02-01T12-30-58-782Z,2026-02-01T12:30:58.782Z,gemini-gemini,dual-loop,6,5,6,6,True,38364,canterbury-633397,2,easy,TopicSimon-Arrays,CS2,Skill-PureKnowledgeRecall,5,3,159,352,12,6,6,4060,1856,2204,6,1,6,3.5,6,6,6,25,0,6,19,38358,34269,2250,36519,0,0,False,False,True
run_2026-02-01T12-30-58-782Z,2026-02-01T12:30:58.782Z,gpt-gpt,dual-loop,6,5,1,1,True,15570,canterbury-634167,1,medium,TopicSimon-Assignment,CS2,Skill-WriteCode_MeansChooseOption,5,1,212,49,2,1,1,556,215,341,1,1,1,1.0,1,1,1,5,0,1,4,15569,4785,756,5541,327,0,True,False,True
run_2026-02-01T12-30-58-782Z,2026-02-01T12:30:58.782Z,gpt-gpt,dual-loop,6,5,4,5,True,111309,canterbury-633397,2,easy,TopicSimon-Arrays,CS2,Skill-PureKnowledgeRecall,5,3,159,352,8,4,4,2636,1129,1507,4,1,4,2.5,4,5,5,19,0,5,14,111306,22953,6150,29103,3992,0,False,False,True
run_2026-02-01T12-30-58-782Z,2026-02-01T12:30:58.782Z,gemini-single,single,6,5,6,,False,29552,canterbury-634167,1,medium,TopicSimon-Assignment,CS2,Skill-WriteCode_MeansChooseOption,5,1,212,49,12,6,6,4500,2203,2297,6,1,6,3.5,6,0,0,19,0,6,13,29548,27373,1994,29367,0,0,False,False,True
run_2026-02-01T12-30-58-782Z,2026-02-01T12:30:58.782Z,gemini-gemini,dual-loop,6,5,6,6,True,34576,canterbury-634167,1,medium,TopicSimon-Assignment,CS2,Skill-WriteCode_MeansChooseOption,5,1,212,49,12,6,6,4544,2301,2243,6,1,6,3.5,6,6,6,25,0,6,19,34572,35909,2244,38153,0,0,False,False,True
run_2026-02-01T12-30-58-782Z,2026-02-01T12:30:58.782Z,gpt-single,single,6,5,6,,False,47166,canterbury-632090,2,easy,TopicSimon-ArithmeticOperators,CS1,Skill-Trace_IncludesExpressions,5,3,99,120,12,6,6,3554,1629,1925,6,1,6,3.5,6,0,0,19,0,6,13,47166,24619,2422,27041,666,1152,True,False,True
run_2026-02-01T12-30-58-782Z,2026-02-01T12:30:58.782Z,gemini-gpt,dual-loop,6,5,6,7,True,58315,canterbury-634167,1,medium,TopicSimon-Assignment,CS2,Skill-WriteCode_MeansChooseOption,5,1,212,49,12,6,6,4353,2210,2143,6,1,6,3.5,6,7,7,27,0,7,20,58312,37906,3770,41676,1059,3712,False,False,True
run_2026-02-01T12-30-58-782Z,2026-02-01T12:30:58.782Z,gpt-gemini,dual-loop,6,5,6,6,True,72007,canterbury-634167,1,medium,TopicSimon-Assignment,CS2,Skill-WriteCode_MeansChooseOption,5,1,212,49,12,6,6,3956,1800,2156,6,1,6,3.5,6,6,6,25,0,6,19,72003,35114,3730,38844,1403,1280,True,False,True
run_2026-02-01T12-30-58-782Z,2026-02-01T12:30:58.782Z,gemini-single,single,6,5,6,,False,27701,canterbury-632090,2,easy,TopicSimon-ArithmeticOperators,CS1,Skill-Trace_IncludesExpressions,5,3,99,120,12,6,6,3733,1727,2006,6,1,6,3.5,6,0,0,19,0,6,13,27695,23949,1610,25559,0,0,False,False,True
run_2026-02-01T12-30-58-782Z,2026-02-01T12:30:58.782Z,gpt-gpt,dual-loop,6,5,6,6,True,62648,canterbury-632090,2,easy,TopicSimon-ArithmeticOperators,CS1,Skill-Trace_IncludesExpressions,5,3,99,120,12,6,6,3843,1789,2054,6,1,6,3.5,6,6,6,25,0,6,19,62644,32118,3022,35140,783,3712,False,False,True
run_2026-02-01T12-30-58-782Z,2026-02-01T12:30:58.782Z,gemini-gemini,dual-loop,6,5,6,6,True,33870,canterbury-632090,2,easy,TopicSimon-ArithmeticOperators,CS1,Skill-Trace_IncludesExpressions,5,3,99,120,12,6,6,3734,1745,1989,6,1,6,3.5,6,6,6,25,0,6,19,33867,31723,1989,33712,0,0,False,False,True
run_2026-02-01T12-30-58-782Z,2026-02-01T12:30:58.782Z,gemini-gpt,dual-loop,6,5,6,6,True,44443,canterbury-632090,2,easy,TopicSimon-ArithmeticOperators,CS1,Skill-Trace_IncludesExpressions,5,3,99,120,12,6,6,3461,1528,1933,6,1,6,3.5,6,6,6,25,0,6,19,44440,30850,2369,33219,320,2304,False,False,True
run_2026-02-01T12-30-58-782Z,2026-02-01T12:30:58.782Z,gpt-gemini,dual-loop,6,5,6,9,True,72056,canterbury-632090,2,easy,TopicSimon-ArithmeticOperators,CS1,Skill-Trace_IncludesExpressions,5,3,99,120,12,6,6,3874,1786,2088,6,1,6,3.5,6,9,9,31,0,9,22,72050,39581,4291,43872,1334,2176,False,False,True
run_2026-02-01T12-30-58-782Z,2026-02-01T12:30:58.782Z,gemini-single,single,6,5,6,,False,27156,canterbury-635019,3,easy,TopicWG-ADT-Queue-DefInterfaceUse,CS2,Skill-Trace_IncludesExpressions,5,2,442,444,12,6,6,4464,2113,2351,6,1,6,3.5,6,0,0,19,0,6,13,27155,28576,1888,30464,0,0,False,False,True
run_2026-02-01T12-30-58-782Z,2026-02-01T12:30:58.782Z,gpt-single,single,6,5,6,,False,51755,canterbury-635019,3,easy,TopicWG-ADT-Queue-DefInterfaceUse,CS2,Skill-Trace_IncludesExpressions,5,2,442,444,12,6,6,4055,1771,2284,6,1,6,3.5,6,0,0,19,0,6,13,51754,28606,3153,31759,1203,1152,False,False,True
run_2026-02-01T12-30-58-782Z,2026-02-01T12:30:58.782Z,gpt-gpt,dual-loop,6,5,6,6,True,67032,canterbury-635019,3,easy,TopicWG-ADT-Queue-DefInterfaceUse,CS2,Skill-Trace_IncludesExpressions,5,2,442,444,12,6,6,4110,1916,2194,6,1,6,3.5,6,6,6,25,0,6,19,67028,36801,3303,40104,1016,2304,False,False,True
run_2026-02-01T12-30-58-782Z,2026-02-01T12:30:58.782Z,gemini-gemini,dual-loop,6,5,6,6,True,34459,canterbury-635019,3,easy,TopicWG-ADT-Queue-DefInterfaceUse,CS2,Skill-Trace_IncludesExpressions,5,2,442,444,12,6,6,4393,2024,2369,6,1,6,3.5,6,6,6,25,0,6,19,34456,37410,2226,39636,0,0,False,False,True
run_2026-02-01T12-30-58-782Z,2026-02-01T12:30:58.782Z,gemini-gpt,dual-loop,6,5,6,6,True,58043,canterbury-635019,3,easy,TopicWG-ADT-Queue-DefInterfaceUse,CS2,Skill-Trace_IncludesExpressions,5,2,442,444,12,6,6,4370,1936,2434,6,1,6,3.5,6,6,6,25,0,6,19,58039,37142,2931,40073,673,1152,False,False,True
run_2026-02-01T12-30-58-782Z,2026-02-01T12:30:58.782Z,gpt-gemini,dual-loop,6,5,6,7,True,70939,canterbury-635019,3,easy,TopicWG-ADT-Queue-DefInterfaceUse,CS2,Skill-Trace_IncludesExpressions,5,2,442,444,12,6,6,3987,1883,2104,6,1,6,3.5,6,7,7,27,0,7,20,70938,40264,3908,44172,1401,4240,False,False,True
run_2026-02-01T12-30-58-782Z,2026-02-01T12:30:58.782Z,gpt-single,single,6,5,6,,False,45942,canterbury-634151,1,easy,TopicWG-Runtime-StorageManagement,CS2,Skill-PureKnowledgeRecall,4,2,78,27,12,6,6,4731,2273,2458,6,1,6,3.5,6,0,0,19,0,6,13,45941,24190,2759,26949,912,0,False,False,True
run_2026-02-01T12-30-58-782Z,2026-02-01T12:30:58.782Z,gemini-single,single,6,5,6,,False,30268,canterbury-634151,1,easy,TopicWG-Runtime-StorageManagement,CS2,Skill-PureKnowledgeRecall,4,2,78,27,12,6,6,4900,2020,2880,6,1,6,3.5,6,0,0,19,0,6,13,30265,24137,1776,25913,0,0,False,False,True
run_2026-02-01T12-30-58-782Z,2026-02-01T12:30:58.782Z,gpt-gemini,dual-loop,6,5,6,6,True,58058,canterbury-634151,1,easy,TopicWG-Runtime-StorageManagement,CS2,Skill-PureKnowledgeRecall,4,2,78,27,12,6,6,4730,2109,2621,6,1,6,3.5,6,6,6,25,0,6,19,58054,32066,3409,35475,1030,0,False,False,True
run_2026-02-01T12-30-58-782Z,2026-02-01T12:30:58.782Z,gemini-gemini,dual-loop,6,5,6,7,True,39947,canterbury-634151,1,easy,TopicWG-Runtime-StorageManagement,CS2,Skill-PureKnowledgeRecall,4,2,78,27,12,6,6,4424,1843,2581,6,1,6,3.5,6,7,7,27,0,7,20,39946,33357,2280,35637,0,0,False,False,True
run_2026-02-01T12-30-58-782Z,2026-02-01T12:30:58.782Z,gpt-gpt,dual-loop,6,5,6,6,True,75039,canterbury-634151,1,easy,TopicWG-Runtime-StorageManagement,CS2,Skill-PureKnowledgeRecall,4,2,78,27,12,6,6,4436,2012,2424,6,1,6,3.5,6,6,6,25,0,6,19,75037,31127,3484,34611,1286,1024,False,False,True
run_2026-02-01T12-30-58-782Z,2026-02-01T12:30:58.782Z,gemini-gpt,dual-loop,6,5,6,7,True,66872,canterbury-634151,1,easy,TopicWG-Runtime-StorageManagement,CS2,Skill-PureKnowledgeRecall,4,2,78,27,12,6,6,4879,2269,2610,6,1,6,3.5,6,7,7,27,0,7,20,66869,35591,3510,39101,879,3072,False,False,True
run_2026-02-01T12-30-58-782Z,2026-02-01T12:30:58.782Z,gpt-single,single,6,5,6,,False,53011,canterbury-634145,1,easy,TopicWG-Graphs,CS2,,4,1,60,30,12,6,6,4500,2059,2441,6,1,6,3.5,6,0,0,19,0,6,13,53009,23787,2484,26271,723,1024,False,False,True
run_2026-02-01T12-30-58-782Z,2026-02-01T12:30:58.782Z,gemini-single,single,6,5,6,,False,28041,canterbury-634145,1,easy,TopicWG-Graphs,CS2,,4,1,60,30,12,6,6,4862,2154,2708,6,1,6,3.5,6,0,0,19,0,6,13,28041,24106,1789,25895,0,0,False,False,True
run_2026-02-01T12-30-58-782Z,2026-02-01T12:30:58.782Z,gpt-gemini,dual-loop,6,5,6,6,True,62020,canterbury-634145,1,easy,TopicWG-Graphs,CS2,,4,1,60,30,12,6,6,4559,2182,2377,6,1,6,3.5,6,6,6,25,0,6,19,62014,31894,3132,35026,956,1024,False,False,True
run_2026-02-01T12-30-58-782Z,2026-02-01T12:30:58.782Z,gemini-gemini,dual-loop,6,5,6,6,True,34462,canterbury-634145,1,easy,TopicWG-Graphs,CS2,,4,1,60,30,12,6,6,4605,1986,2619,6,1,6,3.5,6,6,6,25,0,6,19,34459,30897,2069,32966,0,0,False,False,True
run_2026-02-01T12-30-58-782Z,2026-02-01T12:30:58.782Z,gemini-gpt,dual-loop,6,5,6,6,True,57891,canterbury-634145,1,easy,TopicWG-Graphs,CS2,,4,1,60,30,12,6,6,4400,1812,2588,6,1,6,3.5,6,6,6,25,0,6,19,57885,31300,3302,34602,1146,2176,False,False,True
run_2026-02-01T12-30-58-782Z,2026-02-01T12:30:58.782Z,gpt-gemini,dual-loop,6,5,1,1,True,10077,canterbury-633268,3,medium,TopicSimon-AlgorithmComplex-BigO,CS2,SkillWG-AnalyzeCode,5,1,424,341,2,1,1,633,211,422,1,1,1,1.0,1,1,1,5,0,1,4,10075,5142,519,5661,97,0,True,False,True
run_2026-02-01T12-30-58-782Z,2026-02-01T12:30:58.782Z,gpt-gpt,dual-loop,6,5,6,6,True,78761,canterbury-634145,1,easy,TopicWG-Graphs,CS2,,4,1,60,30,12,6,6,4241,1684,2557,6,1,6,3.5,6,6,6,25,0,6,19,78753,30606,4035,34641,1845,1152,False,False,True
run_2026-02-01T12-30-58-782Z,2026-02-01T12:30:58.782Z,gpt-single,single,6,5,6,,False,59257,canterbury-633268,3,medium,TopicSimon-AlgorithmComplex-BigO,CS2,SkillWG-AnalyzeCode,5,1,424,341,12,6,6,4473,2254,2219,6,1,6,3.5,6,0,0,19,0,6,13,59255,28405,3474,31879,1419,2176,False,False,True
run_2026-02-01T12-30-58-782Z,2026-02-01T12:30:58.782Z,gemini-single,single,6,5,6,,False,27832,canterbury-633268,3,medium,TopicSimon-AlgorithmComplex-BigO,CS2,SkillWG-AnalyzeCode,5,1,424,341,12,6,6,4672,2371,2301,6,1,6,3.5,6,0,0,19,0,6,13,27829,27932,1907,29839,0,0,False,False,True
run_2026-02-01T12-30-58-782Z,2026-02-01T12:30:58.782Z,gemini-gemini,dual-loop,6,5,6,6,True,37153,canterbury-633268,3,medium,TopicSimon-AlgorithmComplex-BigO,CS2,SkillWG-AnalyzeCode,5,1,424,341,12,6,6,4780,2426,2354,6,1,6,3.5,6,6,6,25,0,6,19,37149,37453,2312,39765,0,0,False,False,True
run_2026-02-01T12-30-58-782Z,2026-02-01T12:30:58.782Z,gpt-gpt,dual-loop,6,5,3,5,True,61388,canterbury-633268,3,medium,TopicSimon-AlgorithmComplex-BigO,CS2,SkillWG-AnalyzeCode,5,1,424,341,6,3,3,1847,644,1203,3,1,3,2.0,3,5,5,17,0,5,12,61385,19709,3778,23487,1866,2176,True,False,True
run_2026-02-01T12-30-58-782Z,2026-02-01T12:30:58.782Z,gemini-gpt,dual-loop,6,5,6,6,True,53814,canterbury-633268,3,medium,TopicSimon-AlgorithmComplex-BigO,CS2,SkillWG-AnalyzeCode,5,1,424,341,12,6,6,5027,2507,2520,6,1,6,3.5,6,6,6,25,0,6,19,53810,37719,3082,40801,670,4096,False,False,True
run_2026-02-01T12-30-58-782Z,2026-02-01T12:30:58.782Z,gemini-single,single,6,5,6,,False,27981,canterbury-633266,2,easy,TopicSimon-AlgorithmComplex-BigO,CS2,Skill-PureKnowledgeRecall,5,3,217,56,12,6,6,3698,1686,2012,6,1,6,3.5,6,0,0,19,0,6,13,27978,24544,1766,26310,0,0,False,False,True
run_2026-02-01T12-30-58-782Z,2026-02-01T12:30:58.782Z,gpt-single,single,6,5,6,,False,67203,canterbury-633266,2,easy,TopicSimon-AlgorithmComplex-BigO,CS2,Skill-PureKnowledgeRecall,5,3,217,56,12,6,6,3888,1620,2268,6,1,6,3.5,6,0,0,19,0,6,13,67200,25444,3958,29402,2129,0,False,False,True
run_2026-02-01T12-30-58-782Z,2026-02-01T12:30:58.782Z,gemini-gemini,dual-loop,6,5,6,7,True,39145,canterbury-633266,2,easy,TopicSimon-AlgorithmComplex-BigO,CS2,Skill-PureKnowledgeRecall,5,3,217,56,12,6,6,4466,2180,2286,6,1,6,3.5,6,7,7,27,0,7,20,39141,37853,2550,40403,0,0,False,False,True
run_2026-02-01T12-30-58-782Z,2026-02-01T12:30:58.782Z,gpt-gemini,dual-loop,6,5,6,6,True,78634,canterbury-633266,2,easy,TopicSimon-AlgorithmComplex-BigO,CS2,Skill-PureKnowledgeRecall,5,3,217,56,12,6,6,3726,1798,1928,6,1,6,3.5,6,6,6,25,0,6,19,78632,33668,4673,38341,2335,1280,False,False,True
run_2026-02-01T12-30-58-782Z,2026-02-01T12:30:58.782Z,gemini-gpt,dual-loop,6,5,6,6,True,64906,canterbury-633266,2,easy,TopicSimon-AlgorithmComplex-BigO,CS2,Skill-PureKnowledgeRecall,5,3,217,56,12,6,6,4322,1929,2393,6,1,6,3.5,6,6,6,25,0,6,19,64902,34449,3784,38233,1356,2816,False,False,True
run_2026-02-01T12-30-58-782Z,2026-02-01T12:30:58.782Z,gpt-gpt,dual-loop,6,5,6,6,True,107281,canterbury-633266,2,easy,TopicSimon-AlgorithmComplex-BigO,CS2,Skill-PureKnowledgeRecall,5,3,217,56,12,6,6,4011,1878,2133,6,1,6,3.5,6,6,6,25,0,6,19,107278,33986,6257,40243,3810,2304,False,False,True
run_2026-02-01T12-30-58-782Z,2026-02-01T12:30:58.782Z,gpt-gpt,dual-loop,6,5,2,2,True,21543,canterbury-633260,3,easy,TopicSimon-AlgorithmComplex-BigO,CS2,Skill-PureKnowledgeRecall,5,1,74,239,4,2,2,1343,512,831,2,1,2,1.5,2,2,2,9,0,2,7,21541,8412,1017,9429,293,0,True,False,True
run_2026-02-01T12-30-58-782Z,2026-02-01T12:30:58.782Z,gpt-single,single,6,5,6,,False,54196,canterbury-633260,3,easy,TopicSimon-AlgorithmComplex-BigO,CS2,Skill-PureKnowledgeRecall,5,1,74,239,12,6,6,4951,2266,2685,6,1,6,3.5,6,0,0,19,0,6,13,54193,26158,3156,29314,1130,1024,False,False,True
run_2026-02-01T12-30-58-782Z,2026-02-01T12:30:58.782Z,gemini-single,single,6,5,6,,False,28494,canterbury-633260,3,easy,TopicSimon-AlgorithmComplex-BigO,CS2,Skill-PureKnowledgeRecall,5,1,74,239,12,6,6,4558,1961,2597,6,1,6,3.5,6,0,0,19,0,6,13,28493,24501,1779,26280,0,0,False,False,True
run_2026-02-01T12-30-58-782Z,2026-02-01T12:30:58.782Z,gpt-gemini,dual-loop,6,5,6,6,True,52268,canterbury-633260,3,easy,TopicSimon-AlgorithmComplex-BigO,CS2,Skill-PureKnowledgeRecall,5,1,74,239,12,6,6,4860,2311,2549,6,1,6,3.5,6,6,6,25,0,6,19,52264,32950,3211,36161,928,1024,False,False,True
run_2026-02-01T12-30-58-782Z,2026-02-01T12:30:58.782Z,gemini-gemini,dual-loop,6,5,6,6,True,38634,canterbury-633260,3,easy,TopicSimon-AlgorithmComplex-BigO,CS2,Skill-PureKnowledgeRecall,5,1,74,239,12,6,6,4820,2327,2493,6,1,6,3.5,6,6,6,25,0,6,19,38633,33297,2174,35471,0,0,False,False,True
run_2026-02-01T12-30-58-782Z,2026-02-01T12:30:58.782Z,gpt-gemini,dual-loop,6,5,1,1,True,9796,canterbury-634147,1,medium,TopicWG-Sorting-NlogN,CS2,,4,2,49,168,2,1,1,693,267,426,1,1,1,1.0,1,1,1,5,0,1,4,9795,4538,458,4996,88,0,False,False,True
run_2026-02-01T12-30-58-782Z,2026-02-01T12:30:58.782Z,gemini-single,single,6,5,1,,False,5095,canterbury-634147,1,medium,TopicWG-Sorting-NlogN,CS2,,4,2,49,168,2,1,1,576,154,422,1,1,1,1.0,1,0,0,4,0,1,3,5094,3582,294,3876,0,0,True,False,True
run_2026-02-01T12-30-58-782Z,2026-02-01T12:30:58.782Z,gpt-gpt,dual-loop,6,5,2,3,True,33789,canterbury-634147,1,medium,TopicWG-Sorting-NlogN,CS2,,4,2,49,168,4,2,2,1266,422,844,2,1,2,1.5,2,3,3,11,0,3,8,33789,10130,2297,12427,1125,0,False,False,True
run_2026-02-01T12-30-58-782Z,2026-02-01T12:30:58.782Z,gemini-gpt,dual-loop,6,5,6,6,True,50195,canterbury-633260,3,easy,TopicSimon-AlgorithmComplex-BigO,CS2,Skill-PureKnowledgeRecall,5,1,74,239,12,6,6,4350,1812,2538,6,1,6,3.5,6,6,6,25,0,6,19,50189,31866,2750,34616,619,2176,False,False,True
run_2026-02-01T12-30-58-782Z,2026-02-01T12:30:58.782Z,gemini-gemini,dual-loop,6,5,1,1,True,7044,canterbury-634147,1,medium,TopicWG-Sorting-NlogN,CS2,,4,2,49,168,2,1,1,635,187,448,1,1,1,1.0,1,1,1,5,0,1,4,7042,4500,398,4898,0,0,True,False,True
run_2026-02-01T12-30-58-782Z,2026-02-01T12:30:58.782Z,gpt-single,single,6,5,6,,False,44834,canterbury-634147,1,medium,TopicWG-Sorting-NlogN,CS2,,4,2,49,168,12,6,6,4466,1875,2591,6,1,6,3.5,6,0,0,19,0,6,13,44831,24916,2612,27528,757,0,False,False,True
run_2026-02-01T12-30-58-782Z,2026-02-01T12:30:58.782Z,gpt-single,single,6,5,2,,False,15303,canterbury-633259,3,easy,TopicSimon-AlgorithmComplex-BigO,CS2,Skill-PureKnowledgeRecall,5,2,72,227,4,2,2,1444,579,865,2,1,2,1.5,2,0,0,7,0,2,5,15302,6838,851,7689,143,0,True,False,True
run_2026-02-01T12-30-58-782Z,2026-02-01T12:30:58.782Z,gemini-single,single,6,5,6,,False,26835,canterbury-633259,3,easy,TopicSimon-AlgorithmComplex-BigO,CS2,Skill-PureKnowledgeRecall,5,2,72,227,12,6,6,4141,1720,2421,6,1,6,3.5,6,0,0,19,0,6,13,26834,23859,1675,25534,0,0,False,False,True
run_2026-02-01T12-30-58-782Z,2026-02-01T12:30:58.782Z,gemini-gpt,dual-loop,6,5,6,6,True,46239,canterbury-633259,3,easy,TopicSimon-AlgorithmComplex-BigO,CS2,Skill-PureKnowledgeRecall,5,2,72,227,12,6,6,4516,2190,2326,6,1,6,3.5,6,6,6,25,0,6,19,46234,32375,2601,34976,406,2176,False,False,True
run_2026-02-01T12-30-58-782Z,2026-02-01T12:30:58.782Z,gemini-gpt,dual-loop,6,5,6,8,True,64997,canterbury-634147,1,medium,TopicWG-Sorting-NlogN,CS2,,4,2,49,168,12,6,6,4449,1997,2452,6,1,6,3.5,6,8,8,29,0,8,21,64991,37565,3826,41391,788,4864,False,False,True
run_2026-02-01T12-30-58-782Z,2026-02-01T12:30:58.782Z,gpt-gemini,dual-loop,6,5,6,6,True,60909,canterbury-633259,3,easy,TopicSimon-AlgorithmComplex-BigO,CS2,Skill-PureKnowledgeRecall,5,2,72,227,12,6,6,4493,2062,2431,6,1,6,3.5,6,6,6,25,0,6,19,60906,32985,3594,36579,1319,1152,False,False,True
run_2026-02-01T12-30-58-782Z,2026-02-01T12:30:58.782Z,gemini-gemini,dual-loop,6,5,6,6,True,35047,canterbury-633259,3,easy,TopicSimon-AlgorithmComplex-BigO,CS2,Skill-PureKnowledgeRecall,5,2,72,227,12,6,6,4473,1925,2548,6,1,6,3.5,6,6,6,25,0,6,19,35044,31553,2076,33629,0,0,False,False,True
run_2026-02-01T12-30-58-782Z,2026-02-01T12:30:58.782Z,gpt-gpt,dual-loop,6,5,6,6,True,87100,canterbury-633259,3,easy,TopicSimon-AlgorithmComplex-BigO,CS2,Skill-PureKnowledgeRecall,5,2,72,227,12,6,6,4462,2072,2390,6,1,6,3.5,6,6,6,25,0,6,19,87095,32590,3938,36528,1724,2304,False,False,True
run_2026-02-01T12-30-58-782Z,2026-02-01T12:30:58.782Z,gemini-single,single,6,5,6,,False,29116,canterbury-633257,2,easy,TopicSimon-AlgorithmComplex-BigO,CS2,Skill-PureKnowledgeRecall,5,0,298,156,12,6,6,4231,2018,2213,6,1,6,3.5,6,0,0,19,0,6,13,29110,27352,1922,29274,0,0,False,False,True
run_2026-02-01T12-30-58-782Z,2026-02-01T12:30:58.782Z,gpt-single,single,6,5,6,,False,61300,canterbury-633257,2,easy,TopicSimon-AlgorithmComplex-BigO,CS2,Skill-PureKnowledgeRecall,5,0,298,156,12,6,6,4016,1892,2124,6,1,6,3.5,6,0,0,19,0,6,13,61298,27005,3962,30967,2068,1152,False,False,True
run_2026-02-01T12-30-58-782Z,2026-02-01T12:30:58.782Z,gemini-gemini,dual-loop,6,5,6,6,True,34690,canterbury-633257,2,easy,TopicSimon-AlgorithmComplex-BigO,CS2,Skill-PureKnowledgeRecall,5,0,298,156,12,6,6,4164,1927,2237,6,1,6,3.5,6,6,6,25,0,6,19,34687,34527,2239,36766,0,0,False,False,True
run_2026-02-01T12-30-58-782Z,2026-02-01T12:30:58.782Z,gpt-gemini,dual-loop,6,5,6,7,True,79447,canterbury-633257,2,easy,TopicSimon-AlgorithmComplex-BigO,CS2,Skill-PureKnowledgeRecall,5,0,298,156,12,6,6,4808,2533,2275,6,1,6,3.5,6,7,7,27,0,7,20,79440,41026,5378,46404,2423,1837,False,False,True
run_2026-02-01T12-30-58-782Z,2026-02-01T12:30:58.782Z,gemini-gpt,dual-loop,6,5,6,7,True,78794,canterbury-633257,2,easy,TopicSimon-AlgorithmComplex-BigO,CS2,Skill-PureKnowledgeRecall,5,0,298,156,12,6,6,4334,1950,2384,6,1,6,3.5,6,7,7,27,0,7,20,78792,38836,4562,43398,1813,4992,False,False,True
run_2026-02-01T12-30-58-782Z,2026-02-01T12:30:58.782Z,gpt-single,single,6,5,6,,False,48693,canterbury-633245,2,medium,TopicSimon-AlgorithmComplex-BigO,CS2,Skill-PureKnowledgeRecall,5,0,223,109,12,6,6,3958,1781,2177,6,1,6,3.5,6,0,0,19,0,6,13,48688,25667,2893,28560,1056,0,False,False,True
run_2026-02-01T12-30-58-782Z,2026-02-01T12:30:58.782Z,gpt-gpt,dual-loop,6,5,6,7,True,113140,canterbury-633257,2,easy,TopicSimon-AlgorithmComplex-BigO,CS2,Skill-PureKnowledgeRecall,5,0,298,156,12,6,6,4182,2198,1984,6,1,6,3.5,6,7,7,27,0,7,20,113136,40755,6875,47630,3966,8320,False,False,True
run_2026-02-01T12-30-58-782Z,2026-02-01T12:30:58.782Z,gemini-gpt,dual-loop,6,5,2,2,True,15135,canterbury-633245,2,medium,TopicSimon-AlgorithmComplex-BigO,CS2,Skill-PureKnowledgeRecall,5,0,223,109,4,2,2,1125,373,752,2,1,2,1.5,2,2,2,9,0,2,7,15134,8719,817,9536,99,0,False,False,True
run_2026-02-01T12-30-58-782Z,2026-02-01T12:30:58.782Z,gemini-single,single,6,5,6,,False,26780,canterbury-633245,2,medium,TopicSimon-AlgorithmComplex-BigO,CS2,Skill-PureKnowledgeRecall,5,0,223,109,12,6,6,4126,1836,2290,6,1,6,3.5,6,0,0,19,0,6,13,26776,25462,1743,27205,0,0,False,False,True
run_2026-02-01T12-30-58-782Z,2026-02-01T12:30:58.782Z,gemini-gemini,dual-loop,6,5,6,8,True,42167,canterbury-633245,2,medium,TopicSimon-AlgorithmComplex-BigO,CS2,Skill-PureKnowledgeRecall,5,0,223,109,12,6,6,4017,1806,2211,6,1,6,3.5,6,8,8,29,0,8,21,42163,39584,2755,42339,0,0,False,False,True
run_2026-02-01T12-30-58-782Z,2026-02-01T12:30:58.782Z,gpt-gemini,dual-loop,6,5,6,7,True,78954,canterbury-633245,2,medium,TopicSimon-AlgorithmComplex-BigO,CS2,Skill-PureKnowledgeRecall,5,0,223,109,12,6,6,3900,1794,2106,6,1,6,3.5,6,7,7,27,0,7,20,78948,38022,4745,42767,2127,4239,False,False,True
run_2026-02-01T12-30-58-782Z,2026-02-01T12:30:58.782Z,gpt-gemini,dual-loop,6,5,1,1,True,8011,canterbury-633279,3,medium,TopicSimon-ProgrammingStandards,CS2,SkillWG-AnalyzeCode,4,1,335,60,2,1,1,688,265,423,1,1,1,1.0,1,1,1,5,0,1,4,8011,4842,458,5300,64,0,False,False,True
run_2026-02-01T12-30-58-782Z,2026-02-01T12:30:58.782Z,gpt-gpt,dual-loop,6,5,6,7,True,102706,canterbury-633245,2,medium,TopicSimon-AlgorithmComplex-BigO,CS2,Skill-PureKnowledgeRecall,5,0,223,109,12,6,6,3933,1851,2082,6,1,6,3.5,6,7,7,27,0,7,20,102699,37041,5681,42722,2995,3584,False,False,True
run_2026-02-01T12-30-58-782Z,2026-02-01T12:30:58.782Z,gpt-single,single,6,5,6,,False,51519,canterbury-633279,3,medium,TopicSimon-ProgrammingStandards,CS2,SkillWG-AnalyzeCode,4,1,335,60,12,6,6,4395,1963,2432,6,1,6,3.5,6,0,0,19,0,6,13,51509,25896,2912,28808,1110,0,False,False,True
run_2026-02-01T12-30-58-782Z,2026-02-01T12:30:58.782Z,gemini-single,single,6,5,6,,False,27668,canterbury-633279,3,medium,TopicSimon-ProgrammingStandards,CS2,SkillWG-AnalyzeCode,4,1,335,60,12,6,6,4390,2056,2334,6,1,6,3.5,6,0,0,19,0,6,13,27665,25891,1706,27597,0,0,False,False,True
run_2026-02-01T12-30-58-782Z,2026-02-01T12:30:58.782Z,gpt-gpt,dual-loop,6,5,6,6,True,69913,canterbury-633279,3,medium,TopicSimon-ProgrammingStandards,CS2,SkillWG-AnalyzeCode,4,1,335,60,12,6,6,4442,1925,2517,6,1,6,3.5,6,6,6,25,0,6,19,69904,33473,3650,37123,1442,4736,False,False,True
run_2026-02-01T12-30-58-782Z,2026-02-01T12:30:58.782Z,gemini-gemini,dual-loop,6,5,6,6,True,35828,canterbury-633279,3,medium,TopicSimon-ProgrammingStandards,CS2,SkillWG-AnalyzeCode,4,1,335,60,12,6,6,4042,1865,2177,6,1,6,3.5,6,6,6,25,0,6,19,35828,32891,2090,34981,0,0,False,False,True
run_2026-02-01T12-30-58-782Z,2026-02-01T12:30:58.782Z,gemini-gpt,dual-loop,6,5,6,7,True,59260,canterbury-633279,3,medium,TopicSimon-ProgrammingStandards,CS2,SkillWG-AnalyzeCode,4,1,335,60,12,6,6,4359,2050,2309,6,1,6,3.5,6,7,7,27,0,7,20,59255,36754,3572,40326,980,2688,False,False,True
run_2026-02-01T12-30-58-782Z,2026-02-01T12:30:58.782Z,gpt-single,single,6,5,6,,False,52651,canterbury-635015,1,easy,TopicWG-Numeric-Int-Representatio,CS1,Skill-PureKnowledgeRecall,5,0,102,195,12,6,6,3781,1607,2174,6,1,6,3.5,6,0,0,19,0,6,13,52649,25038,3187,28225,1398,1152,False,False,True
run_2026-02-01T12-30-58-782Z,2026-02-01T12:30:58.782Z,gemini-single,single,6,5,6,,False,27672,canterbury-635015,1,easy,TopicWG-Numeric-Int-Representatio,CS1,Skill-PureKnowledgeRecall,5,0,102,195,12,6,6,3968,1853,2115,6,1,6,3.5,6,0,0,19,0,6,13,27670,25374,1848,27222,0,0,False,False,True
run_2026-02-01T12-30-58-782Z,2026-02-01T12:30:58.782Z,gemini-gemini,dual-loop,6,5,6,6,True,35314,canterbury-635015,1,easy,TopicWG-Numeric-Int-Representatio,CS1,Skill-PureKnowledgeRecall,5,0,102,195,12,6,6,4105,2087,2018,6,1,6,3.5,6,6,6,25,0,6,19,35308,33137,2223,35360,0,0,False,False,True
run_2026-02-01T12-30-58-782Z,2026-02-01T12:30:58.782Z,gpt-gpt,dual-loop,6,5,6,6,True,85061,canterbury-635015,1,easy,TopicWG-Numeric-Int-Representatio,CS1,Skill-PureKnowledgeRecall,5,0,102,195,12,6,6,4200,2071,2129,6,1,6,3.5,6,6,6,25,0,6,19,85059,33658,4303,37961,1873,1408,False,False,True
run_2026-02-01T12-30-58-782Z,2026-02-01T12:30:58.782Z,gpt-gemini,dual-loop,6,5,6,7,True,74687,canterbury-635015,1,easy,TopicWG-Numeric-Int-Representatio,CS1,Skill-PureKnowledgeRecall,5,0,102,195,12,6,6,4258,2423,1835,6,1,6,3.5,6,7,7,27,0,7,20,74682,39775,4321,44096,1631,1024,False,False,True
run_2026-02-01T12-30-58-782Z,2026-02-01T12:30:58.782Z,gemini-gpt,dual-loop,6,5,6,6,True,55260,canterbury-635015,1,easy,TopicWG-Numeric-Int-Representatio,CS1,Skill-PureKnowledgeRecall,5,0,102,195,12,6,6,4224,1992,2232,6,1,6,3.5,6,6,6,25,0,6,19,55255,33848,2872,36720,565,1152,False,False,True
run_2026-02-01T12-30-58-782Z,2026-02-01T12:30:58.782Z,gpt-single,single,6,5,6,,False,69419,canterbury-632068,2,medium,TopicSimon-IO,CS1,Skill-Trace_IncludesExpressions,5,2,551,34,12,6,6,4346,2061,2285,6,1,6,3.5,6,0,0,19,0,6,13,69416,29868,3426,33294,1505,2560,False,False,True
run_2026-02-01T12-30-58-782Z,2026-02-01T12:30:58.782Z,gemini-single,single,6,5,6,,False,29467,canterbury-632068,2,medium,TopicSimon-IO,CS1,Skill-Trace_IncludesExpressions,5,2,551,34,12,6,6,4438,2218,2220,6,1,6,3.5,6,0,0,19,0,6,13,29462,30234,2002,32236,0,0,False,False,True
run_2026-02-01T12-30-58-782Z,2026-02-01T12:30:58.782Z,gpt-single,single,6,5,3,,False,25109,canterbury-633240,3,easy,TopicSimon-CollectionsExceptArray,CS2,Skill-PureKnowledgeRecall,5,1,86,91,6,3,3,1896,691,1205,3,1,3,2.0,3,0,0,10,0,3,7,25108,10074,1427,11501,510,0,False,False,True
run_2026-02-01T12-30-58-782Z,2026-02-01T12:30:58.782Z,gemini-gemini,dual-loop,6,5,6,6,True,34996,canterbury-632068,2,medium,TopicSimon-IO,CS1,Skill-Trace_IncludesExpressions,5,2,551,34,12,6,6,4192,1947,2245,6,1,6,3.5,6,6,6,25,0,6,19,34992,38001,2167,40168,0,0,False,False,True
run_2026-02-01T12-30-58-782Z,2026-02-01T12:30:58.782Z,gpt-gemini,dual-loop,6,5,6,6,True,68587,canterbury-632068,2,medium,TopicSimon-IO,CS1,Skill-Trace_IncludesExpressions,5,2,551,34,12,6,6,4171,2059,2112,6,1,6,3.5,6,6,6,25,0,6,19,68585,39144,3695,42839,1368,2304,False,False,True
run_2026-02-01T12-30-58-782Z,2026-02-01T12:30:58.782Z,gemini-gpt,dual-loop,6,5,6,7,True,71519,canterbury-632068,2,medium,TopicSimon-IO,CS1,Skill-Trace_IncludesExpressions,5,2,551,34,12,6,6,4391,2038,2353,6,1,6,3.5,6,7,7,27,0,7,20,71517,43666,3844,47510,1002,1024,False,False,True
run_2026-02-01T12-30-58-782Z,2026-02-01T12:30:58.782Z,gemini-single,single,6,5,6,,False,27614,canterbury-633240,3,easy,TopicSimon-CollectionsExceptArray,CS2,Skill-PureKnowledgeRecall,5,1,86,91,12,6,6,4193,1800,2393,6,1,6,3.5,6,0,0,19,0,6,13,27612,23662,1736,25398,0,0,False,False,True
run_2026-02-01T12-30-58-782Z,2026-02-01T12:30:58.782Z,gpt-gpt,dual-loop,6,5,6,6,True,114470,canterbury-632068,2,medium,TopicSimon-IO,CS1,Skill-Trace_IncludesExpressions,5,2,551,34,12,6,6,4601,2319,2282,6,1,6,3.5,6,6,6,25,0,6,19,114467,41150,5540,46690,2998,6912,False,False,True
run_2026-02-01T12-30-58-782Z,2026-02-01T12:30:58.782Z,gemini-gpt,dual-loop,6,5,6,6,True,50030,canterbury-633240,3,easy,TopicSimon-CollectionsExceptArray,CS2,Skill-PureKnowledgeRecall,5,1,86,91,12,6,6,4625,2178,2447,6,1,6,3.5,6,6,6,25,0,6,19,50021,32737,2655,35392,421,2176,False,False,True
run_2026-02-01T12-30-58-782Z,2026-02-01T12:30:58.782Z,gemini-gemini,dual-loop,6,5,6,6,True,34347,canterbury-633240,3,easy,TopicSimon-CollectionsExceptArray,CS2,Skill-PureKnowledgeRecall,5,1,86,91,12,6,6,4451,2212,2239,6,1,6,3.5,6,6,6,25,0,6,19,34344,31904,2163,34067,0,0,False,False,True
run_2026-02-01T12-30-58-782Z,2026-02-01T12:30:58.782Z,gpt-gemini,dual-loop,6,5,6,7,True,82265,canterbury-633240,3,easy,TopicSimon-CollectionsExceptArray,CS2,Skill-PureKnowledgeRecall,5,1,86,91,12,6,6,4512,2077,2435,6,1,6,3.5,6,7,7,27,0,7,20,82263,36413,4101,40514,1589,2176,False,False,True
run_2026-02-01T12-30-58-782Z,2026-02-01T12:30:58.782Z,gpt-gpt,dual-loop,6,5,6,8,True,98512,canterbury-633240,3,easy,TopicSimon-CollectionsExceptArray,CS2,Skill-PureKnowledgeRecall,5,1,86,91,12,6,6,4351,2007,2344,6,1,6,3.5,6,8,8,29,0,8,21,98510,37499,5597,43096,2585,3200,False,False,True
run_2026-02-01T12-30-58-782Z,2026-02-01T12:30:58.782Z,gpt-single,single,6,5,6,,False,56240,canterbury-634971,2,easy,TopicSimon-ProgramDesign,CS2,,5,1,62,658,12,6,6,4988,2161,2827,6,1,6,3.5,6,0,0,19,0,6,13,56236,25408,2806,28214,931,1152,False,False,True
run_2026-02-01T12-30-58-782Z,2026-02-01T12:30:58.782Z,gemini-single,single,6,5,6,,False,30277,canterbury-634971,2,easy,TopicSimon-ProgramDesign,CS2,,5,1,62,658,12,6,6,4414,1913,2501,6,1,6,3.5,6,0,0,19,0,6,13,30271,24658,1742,26400,0,0,False,False,True
run_2026-02-01T12-30-58-782Z,2026-02-01T12:30:58.782Z,gpt-gemini,dual-loop,6,5,6,6,True,51901,canterbury-634971,2,easy,TopicSimon-ProgramDesign,CS2,,5,1,62,658,12,6,6,5495,2551,2944,6,1,6,3.5,6,6,6,25,0,6,19,51897,34328,2791,37119,573,1280,False,False,True
run_2026-02-01T12-30-58-782Z,2026-02-01T12:30:58.782Z,gemini-gemini,dual-loop,6,5,6,6,True,34368,canterbury-634971,2,easy,TopicSimon-ProgramDesign,CS2,,5,1,62,658,12,6,6,4521,2052,2469,6,1,6,3.5,6,6,6,25,0,6,19,34362,33595,2142,35737,0,0,False,False,True
run_2026-02-01T12-30-58-782Z,2026-02-01T12:30:58.782Z,gpt-gpt,dual-loop,6,5,6,6,True,69244,canterbury-634971,2,easy,TopicSimon-ProgramDesign,CS2,,5,1,62,658,12,6,6,4914,2067,2847,6,1,6,3.5,6,6,6,25,0,6,19,69244,33295,3456,36751,1182,4608,False,False,True
run_2026-02-01T12-30-58-782Z,2026-02-01T12:30:58.782Z,gemini-gpt,dual-loop,6,5,6,7,True,68314,canterbury-634971,2,easy,TopicSimon-ProgramDesign,CS2,,5,1,62,658,12,6,6,4707,2192,2515,6,1,6,3.5,6,7,7,27,0,7,20,68312,35346,3724,39070,1028,0,False,False,True
run_2026-02-01T12-30-58-782Z,2026-02-01T12:30:58.782Z,gemini-single,single,6,5,6,,False,29128,canterbury-633256,3,medium,TopicSimon-AlgorithmComplex-BigO,CS2,,5,1,429,268,12,6,6,4570,2284,2286,6,1,6,3.5,6,0,0,19,0,6,13,29127,27998,1831,29829,0,0,False,False,True
run_2026-02-01T12-30-58-782Z,2026-02-01T12:30:58.782Z,gpt-single,single,6,5,6,,False,72350,canterbury-633256,3,medium,TopicSimon-AlgorithmComplex-BigO,CS2,,5,1,429,268,12,6,6,4519,2223,2296,6,1,6,3.5,6,0,0,19,0,6,13,72346,27878,4128,32006,2064,1408,False,False,True
run_2026-02-01T12-30-58-782Z,2026-02-01T12:30:58.782Z,gpt-gemini,dual-loop,6,5,6,6,True,64366,canterbury-633256,3,medium,TopicSimon-AlgorithmComplex-BigO,CS2,,5,1,429,268,12,6,6,4072,1958,2114,6,1,6,3.5,6,6,6,25,0,6,19,64362,35976,3628,39604,1365,2432,False,False,True
run_2026-02-01T12-30-58-782Z,2026-02-01T12:30:58.782Z,gemini-gemini,dual-loop,6,5,6,6,True,35160,canterbury-633256,3,medium,TopicSimon-AlgorithmComplex-BigO,CS2,,5,1,429,268,12,6,6,4381,2111,2270,6,1,6,3.5,6,6,6,25,0,6,19,35156,35570,2229,37799,0,0,False,False,True
run_2026-02-01T12-30-58-782Z,2026-02-01T12:30:58.782Z,gpt-gpt,dual-loop,6,5,6,7,True,110223,canterbury-633256,3,medium,TopicSimon-AlgorithmComplex-BigO,CS2,,5,1,429,268,12,6,6,4534,2320,2214,6,1,6,3.5,6,7,7,27,0,7,20,110222,41088,5497,46585,2522,5120,False,False,True
run_2026-02-01T12-30-58-782Z,2026-02-01T12:30:58.782Z,gemini-gpt,dual-loop,6,5,6,7,True,79553,canterbury-633256,3,medium,TopicSimon-AlgorithmComplex-BigO,CS2,,5,1,429,268,12,6,6,4156,1891,2265,6,1,6,3.5,6,7,7,27,0,7,20,79548,38604,4114,42718,1412,1152,False,False,True
run_2026-02-01T12-30-58-782Z,2026-02-01T12:30:58.782Z,gpt-single,single,6,5,6,,False,63633,canterbury-633604,3,easy,TopicSimon-LoopsSubsumesOperators,CS1,Skill-Trace_IncludesExpressions,5,3,240,244,12,6,6,4305,2248,2057,6,1,6,3.5,6,0,0,19,0,6,13,63627,28183,3756,31939,1671,3584,False,False,True
run_2026-02-01T12-30-58-782Z,2026-02-01T12:30:58.782Z,gemini-single,single,6,5,6,,False,29068,canterbury-633604,3,easy,TopicSimon-LoopsSubsumesOperators,CS1,Skill-Trace_IncludesExpressions,5,3,240,244,12,6,6,3989,1993,1996,6,1,6,3.5,6,0,0,19,0,6,13,29065,27547,1929,29476,0,0,False,False,True
run_2026-02-01T12-30-58-782Z,2026-02-01T12:30:58.782Z,gpt-gemini,dual-loop,6,5,6,6,True,74217,canterbury-633604,3,easy,TopicSimon-LoopsSubsumesOperators,CS1,Skill-Trace_IncludesExpressions,5,3,240,244,12,6,6,4194,2038,2156,6,1,6,3.5,6,6,6,25,0,6,19,74210,36411,4088,40499,1741,2432,False,False,True
run_2026-02-01T12-30-58-782Z,2026-02-01T12:30:58.782Z,gpt-gpt,dual-loop,6,5,6,6,True,84049,canterbury-633604,3,easy,TopicSimon-LoopsSubsumesOperators,CS1,Skill-Trace_IncludesExpressions,5,3,240,244,12,6,6,3907,1915,1992,6,1,6,3.5,6,6,6,25,0,6,19,84039,36324,4550,40874,2124,4864,False,False,True
run_2026-02-01T12-30-58-782Z,2026-02-01T12:30:58.782Z,gemini-gemini,dual-loop,6,5,6,8,True,42076,canterbury-633604,3,easy,TopicSimon-LoopsSubsumesOperators,CS1,Skill-Trace_IncludesExpressions,5,3,240,244,12,6,6,4019,1896,2123,6,1,6,3.5,6,8,8,29,0,8,21,42069,41886,2930,44816,0,0,False,False,True
run_2026-02-01T12-30-58-782Z,2026-02-01T12:30:58.782Z,gemini-gpt,dual-loop,6,5,6,6,True,67357,canterbury-633604,3,easy,TopicSimon-LoopsSubsumesOperators,CS1,Skill-Trace_IncludesExpressions,5,3,240,244,12,6,6,4200,2115,2085,6,1,6,3.5,6,6,6,25,0,6,19,67352,38133,3717,41850,1246,5248,False,False,True
run_2026-02-01T12-30-58-782Z,2026-02-01T12:30:58.782Z,gemini-single,single,6,5,6,,False,26678,canterbury-634906,2,easy,TopicSimon-AlgorithmComplex-BigO,CS2,Skill-PureKnowledgeRecall,5,0,246,59,12,6,6,3895,1827,2068,6,1,6,3.5,6,0,0,19,0,6,13,26677,24265,1736,26001,0,0,False,False,True
run_2026-02-01T12-30-58-782Z,2026-02-01T12:30:58.782Z,gpt-single,single,6,5,6,,False,69340,canterbury-634906,2,easy,TopicSimon-AlgorithmComplex-BigO,CS2,Skill-PureKnowledgeRecall,5,0,246,59,12,6,6,4140,1998,2142,6,1,6,3.5,6,0,0,19,0,6,13,69332,26801,3886,30687,1841,2432,False,False,True
